<stores>
	<store division="01" name="Mathers Chermside" number="01010" address1="Shop 149, Westfield Chermside" address2="Gympie Rd" suburb="Chermside" postcode="4032" state="QLD" phone="0730678714" countryid="1" flags="4" openinghours="" latitude="-27.384724" longitude="153.032351"/>
	<store division="01" name="Mathers Rockhampton" number="01022" address1="Shop 17, Kern Arcade" address2="East St" suburb="Rockhampton" postcode="4700" state="QLD" phone="0730678751" countryid="1" flags="4" openinghours="" latitude="-23.38499" longitude="150.518392" />
	<store division="01" name="Mathers Toombul" number="01026" address1="Shop 34, Centro Toombul" address2="1015 Sandgate Rd" suburb="Toombul" postcode="4012" state="QLD" phone="0730678760" countryid="1" flags="4" openinghours="" latitude="-27.408778" longitude="153.060493"  />
	<store division="01" name="Mathers Kingaroy" number="01033" address1="Shop 22, Kingaroy Shoppingworld" address2="Cnr Alford &amp; Youngman Sts" suburb="Kingaroy" postcode="4610" state="QLD" phone="0730678727" countryid="1" flags="4" openinghours="" latitude="-26.541796" longitude="151.836828" />
	<store division="01" name="Mathers Brookside" number="01034" address1="Shop 2, Brookside Shopping Centre" address2="159 Osborne Rd" suburb="Mitchelton" postcode="4053" state="QLD" phone="0730678737" countryid="1" flags="4" openinghours="" latitude="-27.41052" longitude="152.979983"/>
	<store division="01" name="Mathers Indooroopilly" number="01035" address1="Shop 2021, Indooroopilly Shopping Centre" address2="318 Moggill Rd" suburb="Indooroopilly" postcode="4068" state="QLD" phone="0730678723" countryid="1" flags="4" openinghours="" latitude="-27.499652" longitude="152.972679" />
	<store division="01" name="Mathers Garden City" number="01039" address1="Shop 1016, Westfield Garden City" address2="Cnr Logan &amp; Kessels Rds" suburb="Upper Mt Gravatt" postcode="4122" state="QLD" phone="0730678764" countryid="1" flags="4" openinghours="" latitude="-27.563542" longitude="153.080714" />
	<store division="01" name="Mathers Tweed City" number="01047" address1="Shop 57, Tweed City Shopping Centre" address2="54 Pacific Hwy" suburb="Tweed Heads South" postcode="2486" state="NSW" phone="0282793275" countryid="1" flags="4" openinghours="" latitude="-28.200547" longitude="153.544794" />
	<store division="01" name="Mathers Mt Ommaney" number="01049" address1="Shop 137, Mt Ommaney Centre" address2="171 Dandenong Rd" suburb="Mt Ommaney" postcode="4074" state="QLD" phone="0730678740" countryid="1" flags="4" openinghours="" latitude="-27.549306" longitude="152.938678" />
	<store division="01" name="Mathers Kippa-ring" number="01051" address1="Shop C3, Peninsular Fair" address2="Anzac Ave" suburb="Kippa-ring" postcode="4021" state="QLD" phone="0730678728" countryid="1" flags="4" openinghours="" latitude="-27.225516" longitude="153.089053" />
	<store division="01" name="Mathers Grand Central" number="01052" address1="Shop 9, Grand Central Shopping Centre" address2="Cnr Margaret &amp; Dent Sts" suburb="Toowoomba" postcode="4350" state="QLD" phone="0730678761" countryid="1" flags="4" openinghours="" latitude="-27.561286" longitude="151.948775" />
	<store division="01" name="Mathers Tamworth Arcade" number="01056" address1="Centrepoint Arcade" address2="374 Peel St" suburb="Tamworth" postcode="2340" state="NSW" phone="0282793270" countryid="1" flags="4" openinghours="" latitude="-31.090089" longitude="150.930584" />
	<store division="01" name="Mathers Caneland" number="01060" address1="Shop 2414, Caneland Shoppingtown" address2="Cnr Victoria St &amp; Mangrove Rd" suburb="Mackay" postcode="4740" state="QLD" phone="0730678731" countryid="1" flags="4" openinghours="" latitude="-21.138252" longitude="149.178051" />
	<store division="01" name="Mathers Caloundra" number="01061" address1="Shop 35, Stockland Caloundra" address2="Bowman Rd" suburb="Caloundra" postcode="4551" state="QLD" phone="0730678709" countryid="1" flags="4" openinghours="" latitude="-26.802514" longitude="153.125112" />
	<store division="01" name="Mathers Rockhampton Fair" number="01062" address1="1-331 Yaamba Road  &#xD;&#xA;Mathers Shoes" address2="Shop 001A" suburb="Stockland Rockhampton" postcode="4701" state="QLD" phone="0730678758" countryid="1" flags="4" openinghours="" latitude="-23.354165" longitude="150.522289" />
	<store division="01" name="Mathers Kawana" number="01063" address1="Shop 342, Kawana Shoppingtown" address2="Nicklin Wy" suburb="Kawana Waters" postcode="4575" state="QLD" phone="0730678725" countryid="1" flags="4" openinghours="" latitude="-26.703" longitude="153.13086399999997"  />
	<store division="01" name="Mathers Carindale" number="01064" address1="Shop 1241A, Westfield Carindale" address2="1151 Creek Rd" suburb="Carindale" postcode="4152" state="QLD" phone="0730678712" countryid="1" flags="4" openinghours="" latitude="-27.502998" longitude="153.101627" />
	<store division="01" name="Mathers Maroochydore" number="01066" address1="Shop 219, Sunshine Plaza Shopping Centre" address2="Main Rd" suburb="Maroochydore" postcode="4558" state="QLD" phone="0730678734" countryid="1" flags="4" openinghours="" latitude="-37.782223" longitude="144.833593" />
	<store division="01" name="Mathers Capalaba Park" number="01067" address1="Shop 14, Capalaba Park Shopping Centre" address2="Redland Bay Rd" suburb="Capalaba" postcode="4157" state="QLD" phone="0730678710" countryid="1" flags="4" openinghours="" latitude="-27.524126" longitude="153.190988" />
	<store division="01" name="Mathers Armidale" number="01078" address1="Shop 62, Armidale Shopping Centre" address2="Beardy St" suburb="Armidale" postcode="2350" state="NSW" phone="0282793202" countryid="1" flags="4" openinghours="" latitude="-30.512326" longitude="151.665129" />
	<store division="01" name="Mathers Castletown" number="01085" address1="Shop 143, Castletown Shopping Centre" address2="Cnr Kings Rd &amp; Woolcock St" suburb="Hyde Park" postcode="4812" state="QLD" phone="0730678721" countryid="1" flags="4" openinghours="" latitude="-19.271723" longitude="146.790785" />
	<store division="01" name="Mathers Roselands" number="01089" address1="Shop G2, Centro Roselands" address2="Roselands Ave" suburb="Roselands" postcode="2196" state="NSW" phone="0282793265" countryid="1" flags="4" openinghours="" latitude="-33.93435" longitude="151.067085" />
	<store division="01" name="Mathers Townsville" number="01101" address1="Shop 249, Stockland Townsville" address2="310 Ross River Road" suburb="Aitkenvale" postcode="4814" state="QLD" phone="0730678701" countryid="1" flags="2" openinghours="" latitude="-19.299246" longitude="146.763152" />
	<store division="01" name="Mathers Shellharbour" number="01714" address1="Shop 238, Shellharbour Square" address2="Lake Entrance Rd" suburb="Shellharbour" postcode="2529" state="NSW" phone="0282793269" countryid="1" flags="4" openinghours="" latitude="-34.564194" longitude="150.838406" />
	<store division="01" name="Mathers Bankstown" number="01730" address1="Shop ML 018, Centro Bankstown" address2="North Tce" suburb="Bankstown" postcode="2200" state="NSW" phone="0299384052" countryid="1" flags="4" openinghours="" latitude="-33.915418" longitude="151.037598" />
	<store division="01" name="Mathers Macquarie" number="01742" address1="Shop 26, Macquarie Centre" address2="Cnr Herring &amp; Waterloo Rds" suburb="North Ryde" postcode="2113" state="NSW" phone="0282793254" countryid="1" flags="4" openinghours="" latitude="-33.77649" longitude="151.120064"/>
	<store division="01" name="Mathers Nowra Fair" number="01747" address1="Shop 50, Nowra Fair Shopping Centre" address2="32-60 East St" suburb="Nowra" postcode="2541" state="NSW" phone="0282793257" countryid="1" flags="4" openinghours="" latitude="-34.875207" longitude="150.607056" />
	<store division="01" name="Mathers Blacktown" number="01748" address1="Shop 3019, Westpoint Blacktown" address2="Patrick St" suburb="Blacktown" postcode="2148" state="NSW" phone="0282793206" countryid="1" flags="4" openinghours="" latitude="-33.770211" longitude="150.906164" />
	<store division="01" name="Mathers Cessnock" number="01749" address1="84 Vincent St" address2="" suburb="Cessnock" postcode="2325" state="NSW" phone="0282793217" countryid="1" flags="4" openinghours="" latitude="-32.835686" longitude="151.356481" />
	<store division="01" name="Mathers Coffs Plaza" number="01751" address1="Shop 103, Park Beach Plaza" address2="253 Pacific Hwy North" suburb="Coffs Harbour" postcode="2450" state="NSW" phone="0282793221" countryid="1" flags="4" openinghours="" latitude="-30.282798" longitude="153.131522" />
	<store division="01" name="Mathers Goulburn" number="01750" address1="Shop SP 039 Centro Mall" address2="217 Auburn Street" suburb="Goulburn" postcode="2580" state="NSW" phone="02482793236" countryid="1" flags="4" openinghours="" latitude="-34.752564" longitude="149.721274"  />
	<store division="01" name="Mathers Lismore Square" number="01754" address1="Shop 25-26, Lismore Shopping Square" address2="Cnr Brewster &amp; Urabla Sts" suburb="Lismore" postcode="2480" state="NSW" phone="0282793244" countryid="1" flags="4" openinghours="" latitude="-28.810244" longitude="153.286432" />
	<store division="01" name="Mathers Mudgee" number="01755" address1="Shop 6, The Town Centre" address2="" suburb="Mudgee" postcode="2850" state="NSW" phone="0282793251" countryid="1" flags="4" openinghours="" latitude="-32.590521" longitude="149.588761" />
	<store division="01" name="Mathers Taree" number="01756" address1="Shop 16, Taree City Centre" address2="Manning St" suburb="Taree" postcode="2430" state="NSW" phone="0282793272" countryid="1" flags="4" openinghours="" latitude="-31.910748" longitude="152.459861" />
	<store division="01" name="Mathers Orange" number="01757" address1="Shop 121, Orange Metroplaza" address2="227 Summer Street" suburb="Orange" postcode="2800" state="NSW" phone="0282793258" countryid="1" flags="4" openinghours="" latitude="-33.282836" longitude="149.099993"  />
	<store division="01" name="Mathers Kotara" number="01767" address1="Shop 2.11, Westfield Kotara" address2="Cnr Northcott Drv &amp; Park Ave" suburb="Kotara" postcode="2289" state="NSW" phone="0249526286" countryid="1" flags="4" openinghours="" latitude="-32.94097" longitude="151.711803" />
	<store division="01" name="Mathers Young" number="01792" address1="122 Boorowa St" address2="" suburb="Young" postcode="2594" state="NSW" phone="0282793280" countryid="1" flags="4" openinghours="" latitude="-34.313608" longitude="148.296844" />
	<store division="01" name="Mathers Charlestown" number="01802" address1="Shop L01, 1074, Charlestown Square" address2="30 Pearson St" suburb="Charlestown" postcode="2290" state="NSW" phone="0282793218" countryid="1" flags="4" openinghours="" latitude="-32.963647" longitude="151.694003" />
	<store division="01" name="Mathers Castle Towers" number="01807" address1="Shop 368-369, Castle Towers Shopping Centre" address2="Old Castle Hill Rd" suburb="Castle Hill" postcode="2154" state="NSW" phone="0298999222" countryid="1" flags="4" openinghours="" latitude="-33.730424" longitude="151.006522" />
	<store division="01" name="Mathers Penrith" number="01808" address1="Shop 272, Westfield Penrith" address2="Cnr Jane St &amp; Great Western Hwy" suburb="Penrith" postcode="2750" state="NSW" phone="0282793260" countryid="1" flags="4" openinghours="" latitude="-33.751817" longitude="150.69423" />
	<store division="01" name="Mathers Miranda" number="01811" address1="Shop 2096/7, Westfield Miranda" address2="600 The Kingsway" suburb="Miranda" postcode="2228" state="NSW" phone="0282793248" countryid="1" flags="4" openinghours="" latitude="-34.035057" longitude="151.100356" />
	<store division="01" name="Mathers Knox City" number="01832" address1="Shop 1105, Knox City" address2="425 Burwood Hwy" suburb="Wantirna South" postcode="3152" state="VIC" phone="0383738336" countryid="1" flags="4" openinghours="" latitude="-37.86876" longitude="145.239868" />
	<store division="01" name="Mathers Albury" number="01833" address1="Shop 34, Centro Albury" address2="487 Kiewa St" suburb="Albury" postcode="2640" state="NSW" phone="0260214400" countryid="1" flags="4" openinghours="" latitude="-36.081575" longitude="146.913714" />
	<store division="01" name="Mathers Fountain Gate" number="01836" address1="Shop 1024, Westfield Fountain Gate" address2="352 Princes Highway" suburb="Fountain Gate" postcode="3805" state="VIC" phone="0383738310" countryid="1" flags="4" openinghours="" latitude="-38.017516" longitude="145.304124" />
	<store division="01" name="Mathers Tuggerah" number="01841" address1="Shop 1137/8, Westfield Tuggerah" address2="50 Wyong Road" suburb="Tuggerah" postcode="2259" state="NSW" phone="0243510124" countryid="1" flags="4" openinghours="" latitude="-33.308481" longitude="151.412064" />
	<store division="01" name="Mathers Macarthur Square" number="01845" address1="Shop U58A, Macarthur Square Shopping Centre" address2="Gilchrist Drv" suburb="Campbelltown" postcode="2560" state="NSW" phone="0282793211" countryid="1" flags="4" openinghours="" latitude="-34.075522" longitude="150.799271" />
	<store division="01" name="Mathers Hinkler" number="01846" address1="Shop 37, Hinkler Central" address2="Maryborough St" suburb="Bundaberg" postcode="4670" state="QLD" phone="030678707" countryid="1" flags="4" openinghours="" latitude="-24.871986" longitude="152.349654" />
	<store division="01" name="Mathers North Lakes" number="01847" address1="Shop 1126, Westfield North Lakes" address2="Cnr Bruce Hwy &amp; Anzac Ave" suburb="North Lakes" postcode="4509" state="QLD" phone="0730678743" countryid="1" flags="4" openinghours="" latitude="-27.242325" longitude="153.019873" />
	<store division="01" name="Mathers Rouse Hill" number="01848" address1="Shop GR181, Rouse Hill" address2="Windsor Rd" suburb="Rouse Hill" postcode="2155" state="NSW" phone="0282793267" countryid="1" flags="4" openinghours="" latitude="-33.682071" longitude="150.9156" />
	<store division="01" name="Mathers Robina" number="01850" address1="Shop 4030, Robina Town Centre" address2="Robina Town Centre Dr" suburb="Robina" postcode="4226" state="QLD" phone="0730678748" countryid="1" flags="4" openinghours="" latitude="-28.078238" longitude="153.383234" />
	<store division="01" name="Mathers Highpoint" number="01855" address1="Shop 2127, Highpoint Shopping Centre" address2="200 Rosamond Road" suburb="Maribyrnong" postcode="3032" state="VIC" phone="0383738317" countryid="1" flags="4" openinghours="" latitude="-37.773201" longitude="144.882202"  />
	<store division="02" name="Williams Outlet - DFO Brisbane" number="02011" address1="Shop T51, DFO Brisbane Airport" address2="1 Airport Drv" suburb="Brisbane Airport" postcode="4011" state="QLD" phone="070678704" countryid="1" flags="2" openinghours="" latitude="-27.414967" longitude="153.07958"  />
	<store division="02" name="Williams Outlet - DFO South Wharf" number="02015" address1="Tenancy B005, DFO South Wharf" address2="20 Convention Centre Place" suburb="South Wharf" postcode="3006" state="VIC" phone="0383738332" countryid="1" flags="2" openinghours="" latitude="-37.825273" longitude="144.949126" />
	<store division="02" name="Williams Outlet - DFO Jindalee" number="02017" address1="Shop T53, DFO Jindalee" address2="16 Amazons Place" suburb="Jindalee" postcode="4074" state="QLD" phone="0730678724" countryid="1" flags="2" openinghours="" latitude="-27.530989" longitude="152.946904" />
	<store division="02" name="Williams Outlet - DFO Cairns" number="02019" address1="Shop T46, DFO Cairns" address2="274 Mulgrave Road" suburb="Westcourt" postcode="4870" state="QLD" phone="0730678768" countryid="1" flags="2" openinghours="" latitude="-16.933159" longitude="145.752891" />
	<store division="20" name="Williams Mildura Plaza" number="20010" address1="Shop T39, Centro Mildura" address2="Cnr 15th St &amp; Deakin Ave" suburb="Mildura" postcode="3500" state="VIC" phone="03 83738320" countryid="1" flags="4" openinghours="" latitude="-34.205887" longitude="142.137202" />
	<store division="20" name="Williams Australia Fair" number="20011" address1="Shop G087, Australia Fair Shopping Centre" address2="42 Marine Pde" suburb="Southport" postcode="4215" state="QLD" phone="073068754" countryid="1" flags="4" openinghours="" latitude="-27.98575" longitude="153.40933" />
	<store division="20" name="Williams Wodonga" number="20021" address1="Shop 34, Wondoga Plaza" address2="51-57 Elgin Street" suburb="Wodonga" postcode="3690" state="VIC" phone="0383738339" countryid="1" flags="4" openinghours="" latitude="-36.12228" longitude="146.8868" />
	<store division="20" name="Williams Eastland" number="20041" address1="Shop G040, Eastland Shopping Centre" address2="171 Maroondah Hwy" suburb="Ringwood" postcode="3134" state="VIC" phone="0383738328" countryid="1" flags="4" openinghours="" latitude="-37.813819" longitude="145.22869" />
	<store division="20" name="Williams Highpoint" number="20044" address1="Shop 3031, Highpoint Shopping Centre" address2="200 Rosamond Rd" suburb="Maribyrnong" postcode="3032" state="VIC" phone="0383738318" countryid="1" flags="4" openinghours="" latitude="-37.773378" longitude="144.889076"  />
	<store division="20" name="Williams Knox City" number="20046" address1="Shop 1085, Knox City" address2="425 Burwood Hwy" suburb="Wantirna South" postcode="3152" state="VIC" phone="0383738337" countryid="1" flags="4" openinghours="" latitude="-37.868759" longitude="145.239937" />
	<store division="20" name="Williams Greensborough" number="20047" address1="Shop 315, Greensborough Plaza" address2="25 Main St" suburb="Greensborough" postcode="3088" state="VIC" phone="0383738315" countryid="1" flags="4" openinghours="" latitude="-37.702878" longitude="145.102792" />
	<store division="20" name="Williams Southport Park" number="20052" address1="Shop 17, Centro Southport" address2="Cnr Ferry &amp; Benowa Rds" suburb="Southport" postcode="4215" state="QLD" phone="0755329330" countryid="1" flags="4" openinghours="" latitude="-27.98569" longitude="153.4093"/>
	<store division="20" name="Williams Tea Tree" number="20079" address1="Shop 168, Westfield Tea Tree Plaza" address2="976 North East Rd" suburb="Modbury" postcode="5092" state="SA" phone="0882644832" countryid="1" flags="4" openinghours="" latitude="-34.829973" longitude="138.69229"/>
	<store division="20" name="Williams West Lakes" number="20081" address1="Shop 3-4, Westfield West Lakes" address2="111 West Lakes Blvd" suburb="West Lakes" postcode="5021" state="SA" phone="0870991904" countryid="1" flags="4" openinghours="" latitude="-34.880698" longitude="138.491288" />
	<store division="20" name="Williams Clifford Gardens" number="20090" address1="Shop 11, Clifford Gardens Shopping Centre" address2="Anzac Ave" suburb="Toowoomba" postcode="4350" state="QLD" phone="0730678762" countryid="1" flags="4" openinghours="" latitude="-27.56577" longitude="151.932721" />
	<store division="20" name="Williams Greenhills" number="20095" address1="Shop 19, Stockland Greenhills" address2="1 Molly Morgan Drv" suburb="East Maitland" postcode="2323" state="NSW" phone="0282793225" countryid="1" flags="4" openinghours="" latitude="-32.760799" longitude=" 151.592283"  />
	<store division="20" name="Williams Elizabeth" number="20108" address1="East Mall Shop 114, Elizabeth City Centre" address2="Elizabeth Wy" suburb="Elizabeth" postcode="5112" state="SA" phone="0882559889" countryid="1" flags="4" openinghours="" latitude="-34.718423" longitude="138.66924" />
	<store division="20" name="Williams Macquarie" number="20111" address1="Shop 39, Macquarie Centre" address2="Cnr Herring &amp; Waterloo Rds" suburb="North Ryde" postcode="2113" state="NSW" phone="0282793255" countryid="1" flags="4" openinghours="" latitude="-33.77649" longitude="151.120064" />
	<store division="20" name="Williams Penrith" number="20114" address1="Shop 34, Westfield Penrith" address2="Cnr Jane St &amp; Great Western Hwy" suburb="Penrith" postcode="2750" state="NSW" phone="0282793261" countryid="1" flags="4" openinghours="" latitude="-33.751817" longitude="150.69423" />
	<store division="20" name="Williams Gosford" number="20119" address1="Shop 32, Imperial Centre" address2="33 Mann St" suburb="Gosford" postcode="2250" state="NSW" phone="0282793235" countryid="1" flags="4" openinghours="" latitude="-33.429383" longitude="151.341604" />
	<store division="20" name="Williams Blacktown" number="20120" address1="Shop 3000, Westpoint Blacktown" address2="Patrick St" suburb="Blacktown" postcode="2148" state="NSW" phone="0282793207" countryid="1" flags="4" openinghours="" latitude="-33.770612" longitude="150.904168"/>
	<store division="20" name="Williams Mt Druitt" number="20121" address1="Shop 51, Westfield Mt Druitt" address2="Cnr Carlisle Ave &amp; Luxford Rd" suburb="Mount Druitt" postcode="2770" state="NSW" phone="0282793250" countryid="1" flags="4" openinghours="" latitude="-33.764799" longitude="150.821611" />
	<store division="20" name="Williams Wollongong" number="20126" address1="Upper Level Shop N115, Wollongong Central Shopping Centre" address2="200 Crown St" suburb="Wollongong" postcode="2500" state="NSW" phone="0282793279" countryid="1" flags="4" openinghours="" latitude="-34.424588" longitude="150.894242"  />
	<store division="20" name="Williams Hurstville" number="20128" address1="Shop 230, Westfield Hurstville" address2="Cnr Cross &amp; Park Rds" suburb="Hurstville" postcode="2220" state="NSW" phone="0282793240" countryid="1" flags="4" openinghours="" latitude="-33.96552" longitude="151.1049" />
	<store division="20" name="Williams Macarthur Square" number="20130" address1="Shop L3, Macarthur Square Shopping Centre" address2="Gilchrist Drv" suburb="Campbelltown" postcode="2560" state="NSW" phone="0282793212" countryid="1" flags="4" openinghours="" latitude="-34.075748" longitude="150.797476" />
	<store division="20" name="Williams Launceston" number="20134" address1="125 Brisbane St" address2="" suburb="Launceston" postcode="7250" state="TAS" phone="0361115905" countryid="1" flags="4" openinghours="" latitude="-41.437894" longitude="147.138456"/>
	<store division="20" name="Williams Devonport" number="20136" address1="95 Rooke St" address2="" suburb="Devonport" postcode="7310" state="TAS" phone="0364246215" countryid="1" flags="4" openinghours="" latitude="-41.178861" longitude="146.36051" />
	<!-- <store division="20" name="Williams Nathan Plaza" number="20141" address1="Shop 1, Stockland Townsville" address2="310 Ross River Rd" suburb="Aitkenvale" postcode="4814" state="QLD" phone="030678702" countryid="1" flags="4" openinghours="" latitude="-19.298287" longitude="146.763236" /> -->
	<store division="20" name="Williams Earlville" number="20142" address1="Shop 9, Stockland Cairns" address2="537 Mulgrave Rd" suburb="Earlville" postcode="4870" state="QLD" phone="0730678717" countryid="1" flags="4" openinghours="" latitude="-16.943276" longitude="145.739047" />
	<store division="20" name="Williams Caneland" number="20145" address1="Shop 2459, Caneland Shoppingtown" address2="Cnr Victoria St &amp; Mangrove Rd" suburb="Mackay" postcode="4740" state="QLD" phone="0730678733" countryid="1" flags="4" openinghours="" latitude="-21.140063" longitude="149.178534" />
	<store division="20" name="Williams Maroochydore" number="20154" address1="Shop 260, Sunshine Plaza Shopping Centre" address2="Main Rd" suburb="Maroochydore" postcode="4558" state="QLD" phone="0730678735" countryid="1" flags="4" openinghours="" latitude="-26.655074" longitude="153.069188" />
	<store division="20" name="Williams Willows" number="20159" address1="Shop 56, Willows Shoppingtown" address2="Thuringowa Drv" suburb="Kirwan" postcode="4817" state="QLD" phone="0730678729" countryid="1" flags="4" openinghours="" latitude="-19.317121" longitude="146.72837" />
	<store division="20" name="Williams Charlestown" number="20163" address1="Shop 1026, Charlestown Square" address2="30 Pearson St" suburb="Charlestown" postcode="2290" state="NSW" phone="0282793219" countryid="1" flags="4" openinghours="" latitude="-32.963619" longitude="151.693939" />
	<store division="20" name="Williams Port Central" number="20165" address1="Shop 5-6, Port Central Shopping Centre" address2="40-42 Horton St" suburb="Port Macquarie" postcode="2444" state="NSW" phone="0282793263" countryid="1" flags="4" openinghours="" latitude="-31.430025" longitude="152.909912" />
	<store division="20" name="Williams Rockingham" number="20167" address1="Shop 39B, Rockingham Shopping Centre" address2="Read St" suburb="Rockingham" postcode="6168" state="WA" phone="0895278949" countryid="1" flags="4" openinghours="" latitude="-32.289574" longitude="115.744946" />
	<store division="20" name="Williams Centre Plaza" number="20169" address1="Shop 8, Traralgon Centre Plaza" address2="Cnr Franklin &amp; Argyle Sts" suburb="Traralgon" postcode="3844" state="VIC" phone="0383738335" countryid="1" flags="4" openinghours="" latitude="-38.192881" longitude="146.549958" />
	<store division="20" name="Williams Capalaba Park" number="20173" address1="Shop 35, Capalaba Park Shopping Centre" address2="Redland Bay Rd" suburb="Capalaba" postcode="4157" state="QLD" phone="0730678711" countryid="1" flags="4" openinghours="" latitude="-27.524066" longitude="153.191914" />
	<store division="20" name="Williams Kempsey" number="20174" address1="Centrepoint Arcade" address2="14-16 Smith St" suburb="Kempsey" postcode="2440" state="NSW" phone="0282793241" countryid="1" flags="4" openinghours="" latitude="-31.079898" longitude="152.841849" />
	<store division="20" name="Williams Springwood" number="20181" address1="Shop 6, Centro Springwood" address2="Cnr Fitzgerald &amp; Rochedale Rds" suburb="Springwood" postcode="4127" state="QLD" phone="0730678757" countryid="1" flags="4" openinghours="" latitude="-27.613293" longitude="153.126229"  />
	<store division="20" name="Williams Gorokan" number="20190" address1="Shop 20, Lake Haven Shopping Centre" address2="Goubarabah Rd" suburb="Gorokan" postcode="2263" state="NSW" phone="0282793234" countryid="1" flags="4" openinghours="" latitude="-33.25782" longitude="151.510946" />
	<store division="20" name="Williams Fountain Gate" number="20200" address1="Shop 1094, Westfield Fountain Gate" address2="352 Princes Highway" suburb="Fountain Gate" postcode="3805" state="VIC" phone="0383738311" countryid="1" flags="4" openinghours="" latitude="-38.017516" longitude="145.304124" />
	<store division="20" name="Williams Figtree" number="20201" address1="Shop 77-78, Westfield Figtree" address2="Cnr Princess Hwy &amp; The Avenue" suburb="Figtree" postcode="2525" state="NSW" phone="0282793232" countryid="1" flags="4" openinghours="" latitude="-34.437644" longitude="150.863398" />
	<store division="20" name="Williams Kings Meadows" number="20202" address1="Shop 17, Centro Meadow Mews" address2="102-106 Hobart Rd" suburb="Kings Meadows" postcode="7249" state="TAS" phone="0363447022" countryid="1" flags="4" openinghours="" latitude="-41.467246" longitude="147.158728" />
	<store division="20" name="Williams Tuggeranong" number="20204" address1="Shop 107, Tuggeranong Hyperdome" address2="Anketell St" suburb="Tuggeranong" postcode="2900" state="ACT" phone="0262931220" countryid="1" flags="4" openinghours="" latitude="-35.416917" longitude="149.068645" />
	<store division="20" name="Williams Eastgardens" number="20205" address1="Shop 243-4, Westfield Eastgardens" address2="152 Bunnerong Rd" suburb="Eastgardens" postcode="2036" state="NSW" phone="0282793227" countryid="1" flags="4" openinghours="" latitude="-33.944836" longitude="151.225374" />
	<store division="20" name="Williams Tweed City" number="20206" address1="Shop 210A, Tweed City Shopping Centre" address2="54 Pacific Hwy" suburb="Tweed Heads South" postcode="2486" state="NSW" phone="0282793276" countryid="1" flags="4" openinghours="" latitude="-28.200547" longitude="153.544794"  />
	<store division="20" name="Williams Rockhampton Fair" number="20216" address1="Shop 38, Stockland Rockhampton" address2="Cnr Yaamba Rd &amp; Bruce Hwy" suburb="North Rockhampton" postcode="4701" state="QLD" phone="030678745" countryid="1" flags="4" openinghours="" latitude="-23.354165" longitude="150.522289"  />
	<store division="20" name="Williams Bundaberg" number="20221" address1="Shop 324, Sugarland Shoppingtown" address2="115-119 Takalvan St" suburb="West Bundaberg" postcode="4670" state="QLD" phone="030678767" countryid="1" flags="4" openinghours="" latitude="-24.887237" longitude="152.318472" />
	<store division="20" name="Williams Rowville" number="20229" address1="Shop 39, Stud Park Shopping Centre" address2="Cnr Stud &amp; Fulham Rds" suburb="Rowville" postcode="3178" state="VIC" phone="0383738330" countryid="1" flags="4" openinghours="" latitude="-37.919161" longitude="145.235535" />
	<store division="20" name="Williams Loganholme" number="20230" address1="Shop 122, Logan Hyperdome" address2="Cnr Bryants Rd &amp; Pacific Hwy" suburb="Loganholme" postcode="4129" state="QLD" phone="0730678730" countryid="1" flags="4" openinghours="" latitude="-27.658597" longitude="153.170716" />
	<store division="20" name="Williams Warriewood" number="20241" address1="Shop 10, Warriewood Square Shopping Centre" address2="Jacksons Rd" suburb="Warriewood" postcode="2102" state="NSW" phone="0282793277" countryid="1" flags="4" openinghours="" latitude="-33.69583" longitude="151.29559" />
	<store division="20" name="Williams Strathpine" number="20245" address1="Shop 7-8, Westfield Strathpine" address2="295 Gympie Rd" suburb="Strathpine" postcode="4500" state="QLD" phone="0730678759" countryid="1" flags="4" openinghours="" latitude="-27.307289" longitude="152.992105" />
	<store division="20" name="Williams Carindale" number="20259" address1="Shop 1234 Westfield Carindale" address2="1151 Creek Rd" suburb="Carindale" postcode="4152" state="QLD" phone="0730678713" countryid="1" flags="4" openinghours="" latitude="-27.503326" longitude="153.101517" />
	<store division="20" name="Williams Castle Towers" number="20260" address1="Shop 320, Castle Towers Shopping Centre" address2="Old Castle Hill Rd" suburb="Castle Hill" postcode="2154" state="NSW" phone="0282793215" countryid="1" flags="4" openinghours="" latitude="-33.73231" longitude="151.0056"/>
	<store division="20" name="Williams Liverpool" number="20265" address1="Shop 246, Westfield Liverpool" address2="Macquarie St" suburb="Liverpool" postcode="2170" state="NSW" phone="0282793246" countryid="1" flags="4" openinghours="" latitude="-33.918217" longitude="150.924542"  />
	<store division="20" name="Williams Northgate" number="20268" address1="Shop 15, Northgate Shopping Centre" address2="Main Rd" suburb="Glenorchy" postcode="7010" state="TAS" phone="0362733320" countryid="1" flags="4" openinghours="" latitude="-42.831881" longitude="147.273431" />
	<store division="20" name="Williams Warwick Grove" number="20270" address1="Shop 3, Centro Warwick" address2="Cnr Beach &amp; Erindale Rds" suburb="Warwick" postcode="6024" state="WA" phone="0894488311" countryid="1" flags="4" openinghours="" latitude="-31.844275" longitude="115.810653" />
	<store division="20" name="Williams Erina" number="20275" address1="Level 1 Shop T299, Erina Fair Shopping Centre" address2="Terigal Drv" suburb="Erina" postcode="2250" state="NSW" phone="0282793230" countryid="1" flags="4" openinghours="" latitude="-33.437596" longitude="151.393695" />
	<store division="20" name="Williams Muswellbrook" number="20278" address1="Shop 12-14, Muswellbrook Marketplace" address2="" suburb="Muswellbrook" postcode="2333" state="NSW" phone="0265433440" countryid="1" flags="4" openinghours="" latitude="-32.262795" longitude="150.88917" />
	<store division="20" name="Williams Winston Hills" number="20279" address1="Shop 17, Winston Hills Shopping Village" address2="180 Caroline Chisolm Drv" suburb="Winston Hills" postcode="2153" state="NSW" phone="0282793278" countryid="1" flags="4" openinghours="" latitude="-33.772926" longitude="150.968484" />
	<store division="20" name="Williams Alice Springs" number="20280" address1="Shop 25, Alice Plaza" address2="Cnr Todd &amp; Parsons Sts" suburb="Alice Springs" postcode="0870" state="NT" phone="0889521314" countryid="1" flags="4" openinghours="" latitude="-23.698932" longitude="133.883185" />
	<store division="20" name="Williams Lithgow" number="20281" address1="Shop 19-20, Lithgow Valley Shopping Centre" address2="Lithgow St" suburb="Lithgow" postcode="2790" state="NSW" phone="0282793245" countryid="1" flags="4" openinghours="" latitude="-33.48733" longitude="150.151614" />
	<store division="20" name="Williams Joondalup" number="20283" address1="Shop 27, Lakeside Joondalup" address2="Joondalup Drv" suburb="Joondalup" postcode="6027" state="WA" phone="0893002699" countryid="1" flags="4" openinghours="" latitude="-31.742771" longitude="115.765949" />
	<store division="20" name="Williams Morley" number="20284" address1="Shop 34, Centro Galleria" address2="Cnr Collier &amp; Walter Rds" suburb="Morley" postcode="6062" state="WA" phone="0892768922" countryid="1" flags="4" openinghours="" latitude="-31.897941" longitude="115.900172" />
	<store division="20" name="Williams Browns Plains" number="20286" address1="Shop 85, Grand Plaza Shopping Centre" address2="Browns Plains Rd" suburb="Browns Plains" postcode="4118" state="QLD" phone="0730678706" countryid="1" flags="4" openinghours="" latitude="-27.66262" longitude="153.040838" />
	<store division="20" name="Williams Menai" number="20288" address1="Shop T28, Menai Marketplace" address2="Allison Cres" suburb="Menai" postcode="2234" state="NSW" phone="0282793247" countryid="1" flags="4" openinghours="" latitude="-34.013877" longitude="151.017628" />
	<store division="20" name="Williams Cat 'n Fiddle" number="20289" address1="Shop 7, Centro Cat and Fiddle" address2="51 Murray St" suburb="Hobart" postcode="7000" state="TAS" phone="0362315860" countryid="1" flags="4" openinghours="" latitude="-42.88267" longitude="147.326943" />
	<store division="20" name="Williams Tuggerah" number="20292" address1="Shop 1051, Westfield Tuggerah" address2="50 Wyong Rd" suburb="Tuggerah" postcode="2259" state="NSW" phone="0282793274" countryid="1" flags="4" openinghours="" latitude="-33.30755" longitude="151.412276" />
	<store division="20" name="Williams Smithfield" number="20294" address1="Shop 138-139, Smithfield Centre" address2="Cnr Kennedy &amp; Cook Hwys" suburb="Smithfield" postcode="4878" state="QLD" phone="0740382054" countryid="1" flags="4" openinghours="" latitude="-16.838889" longitude="145.688141"  />
	<store division="20" name="Williams Morayfield" number="20296" address1="Shop 19, Morayfield Shopping Centre" address2="Morayfield Rd" suburb="Morayfield" postcode="4506" state="QLD" phone="0730678739" countryid="1" flags="4" openinghours="" latitude="-27.103244" longitude="152.949004"  />
	<store division="20" name="Williams Cairns Central" number="20297" address1="Shop GD 048, Cairns Central Shopping Centre" address2="Cnr Aplin &amp; McLeod Sts" suburb="Cairns" postcode="4870" state="QLD" phone="0730678708" countryid="1" flags="4" openinghours="" latitude="-16.914033" longitude="145.763844" />
	<store division="20" name="Williams Sale" number="20302" address1="Shop 42, Gippsland Centre" address2="Cunninghame St" suburb="Sale" postcode="3850" state="VIC" phone="0351430485" countryid="1" flags="4" openinghours="" latitude="-38.10737" longitude="147.066125" />
	<store division="20" name="Williams Brookside" number="20304" address1="Shop 6, Brookside Shopping Centre" address2="159 Osborne Rd" suburb="Mitchelton" postcode="4053" state="QLD" phone="0730678738" countryid="1" flags="4" openinghours="" latitude="-27.409476" longitude="152.978197" />
	<store division="20" name="Williams Pialba Place" number="20306" address1="Shop 9, Pialba Place Shopping Centre" address2="Main St" suburb="Pialba" postcode="4655" state="QLD" phone="0730678746" countryid="1" flags="4" openinghours="" latitude="-25.282485" longitude="152.839361" />
	<store division="20" name="Williams Booval" number="20308" address1="Shop 44, Booval Fair Shopping Centre" address2="Cnr Brisbane &amp; South Station Rds" suburb="Booval" postcode="4304" state="QLD" phone="0730678703" countryid="1" flags="4" openinghours="" latitude="-27.613775" longitude="152.789527" />
	<store division="20" name="Williams Kin Kora" number="20309" address1="Shop 29, Stockland Gladstone" address2="Cnr Philip St &amp; Dawson Hwy" suburb="Gladstone" postcode="4680" state="QLD" phone="0730678718" countryid="1" flags="4" openinghours="" latitude="-23.870441" longitude="151.242271" />
	<store division="20" name="Williams Rockhampton" number="20310" address1="Shop 30, City Centre Plaza" address2="Cnr Fitzroy &amp; Bolsover Sts" suburb="Rockhampton" postcode="4700" state="QLD" phone="0730678752" countryid="1" flags="4" openinghours="" latitude="-23.381158" longitude="150.513966" />
	<store division="20" name="Williams Maryborough" number="20313" address1="Shop 28, Station Square" address2="142 Lennox St" suburb="Maryborough" postcode="4650" state="QLD" phone="0730678736" countryid="1" flags="4" openinghours="" latitude="-25.538015" longitude="152.697734" />
	<store division="20" name="Williams Dubbo" number="20315" address1="Shop T41, Orana Mall Marketplace" address2="Cnr Wheelers Ln &amp; Mitchell Hwy" suburb="Dubbo" postcode="2830" state="NSW" phone="0282793224" countryid="1" flags="4" openinghours="" latitude="-32.256035" longitude="148.6309" />
	<store division="20" name="Williams Watergardens" number="20316" address1="Shop 58, Watergardens Town Centre" address2="399 Melton Hwy" suburb="Taylors Lakes" postcode="3038" state="VIC" phone="0383738334" countryid="1" flags="4" openinghours="" latitude="-37.699977" longitude="144.776699" />
	<store division="20" name="Williams Bellerive" number="20320" address1="Shop U9, Eastlands Shopping Centre" address2="Bligh St" suburb="Rosny Park" postcode="7018" state="TAS" phone="0362445622" countryid="1" flags="4" openinghours="" latitude="-42.867219" longitude="147.367945"  />
	<store division="20" name="Williams Parkmore" number="20322" address1="Shop H08, Parkmore Shopping Centre" address2="317 Cheltenham Rd" suburb="Keysborough" postcode="3173" state="VIC" phone="0383738316" countryid="1" flags="4" openinghours="" latitude="-37.993234" longitude="145.172107" />
	<store division="20" name="Williams Coffs Plaza" number="20323" address1="Shop 37, Park Beach Plaza" address2="253 Pacific Hwy North" suburb="Coffs Harbour" postcode="2450" state="NSW" phone="0266500780" countryid="1" flags="4" openinghours="" latitude="-30.282744" longitude="153.131529" />
	<store division="20" name="Williams Cranbourne" number="20326" address1="Shop SP140, Cranbourne Park Shopping Centre" address2="High St" suburb="Cranbourne" postcode="3977" state="VIC" phone="0383738304" countryid="1" flags="4" openinghours="" latitude="-38.108347" longitude="145.284425"  />
	<store division="20" name="Williams Redbank" number="20328" address1="Shop 204, Redbank Plaza" address2="Cnr Collingwood Drv &amp; Cunningham Hwy" suburb="Redbank" postcode="4301" state="QLD" phone="0730678747" countryid="1" flags="4" openinghours="" latitude="-27.605569" longitude="152.86783" />
	<store division="20" name="Williams The Glen" number="20329" address1="Shop 2.45a, Centro The Glen" address2="235 Springvale Rd" suburb="Glen Waverley" postcode="3150" state="VIC" phone="0383738314" countryid="1" flags="4" openinghours="" latitude="-37.87526" longitude="145.164821"/>
	<!-- <store division="20" name="Williams Parramatta" number="20331" address1="Shop 2131, Westfield Parramatta" address2="159-175 Church St" suburb="Parramatta" postcode="2150" state="NSW" phone="0282793259" countryid="1" flags="4" openinghours="" latitude="-33.81772" longitude="151.0014"/> -->
	<store division="20" name="Williams Rockdale" number="20332" address1="Shop 14, Rockdale Plaza" address2="1 Rockdale Plaza Drv" suburb="Rockdale" postcode="2216" state="NSW" phone="0282793264" countryid="1" flags="4" openinghours="" latitude="-33.957969" longitude="151.141212"/>
	<store division="20" name="Williams North Lakes" number="20335" address1="Shop 1021, Westfield North Lakes" address2="Cnr Bruce Hwy &amp; Anzac Ave" suburb="North Lakes" postcode="4509" state="QLD" phone="0730678744" countryid="1" flags="4" openinghours="" latitude="-27.242325" longitude="153.019873" />
	<store division="20" name="Williams Ballina" number="20338" address1="Shop 5, Ballina Fair Shopping Centre" address2="Cnr Kerr &amp; Fox Sts" suburb="Ballina" postcode="2478" state="NSW" phone="0282793203" countryid="1" flags="4" openinghours="" latitude="-28.860968" longitude="153.561411"  />
	<store division="20" name="Williams Batemans Bay" number="20343" address1="Shop G13, Village Centre Batemans Bay" address2="1 Perry St" suburb="Batemans Bay" postcode="2536" state="NSW" phone="0282793205" countryid="1" flags="4" openinghours="" latitude="-35.706962" longitude="150.175868"  />
	<store division="20" name="Williams Victoria Point" number="20352" address1="Shop 46, Victoria Point Shopping Centre" address2="Cnr Cleveland-Redland Bay &amp; Bunker Rds" suburb="Victoria Point" postcode="4165" state="Qld" phone="0730678766" countryid="1" flags="4" openinghours="" latitude="-27.58519" longitude="153.2819" />
	<store division="20" name="Williams Helensvale" number="20363" address1="Shop 1087, Westfield Helensvale" address2="Town Centre Drv" suburb="Helensvale" postcode="4212" state="QLD" phone="0730678720" countryid="1" flags="4" openinghours="" latitude="-27.925953" longitude="153.336615" />
	<store division="20" name="Williams Roselands" number="20364" address1="Shop 6, Centro Roselands" address2="Roselands Ave" suburb="Roselands" postcode="2196" state="NSW" phone="082793266" countryid="1" flags="4" openinghours="" latitude="-33.936531" longitude="151.071667" />
	<store division="20" name="Williams Noosa Civic" number="20382" address1="Shop T1056, Noosa Civic" address2="Cnr Eenie Creek Rd &amp; Walter Hay Drv" suburb="Noosaville" postcode="4566" state="QLD" phone="0730678741" countryid="1" flags="4" openinghours="" latitude="-26.415744" longitude="153.048866" />
	<store division="20" name="Williams Centro Gympie" number="20386" address1="Shop 31, Centro Gympie" address2="Cnr Excelsior Rd &amp; Bruce Hwy" suburb="Gympie" postcode="4570" state="QLD" phone="0730678719" countryid="1" flags="4" openinghours="" latitude="-26.198983" longitude="152.667906" />
	<store division="20" name="Williams Springfield" number="20387" address1="Shop 62, Orion Springfield Central" address2="1 Main St" suburb="Springfield Central" postcode="4300" state="QLD" phone="0730678756" countryid="1" flags="4" openinghours="" latitude="-27.67904" longitude="152.903792" />
	<store division="20" name="Williams Narellan" number="20388" address1="Shop 36C, Narellan Town Centre" address2="Cnr Sommerset Ave &amp; Camden Valley" suburb="Narellan" postcode="2567" state="NSW" phone="0282793253" countryid="1" flags="4" openinghours="" latitude="-34.039629" longitude="150.738467" />
	<store division="20" name="Williams Castletown" number="20390" address1="Shop 88, Castletown Shopping Centre" address2="Cnr Kings Rd &amp; Woolcock St" suburb="Hyde Park" postcode="4812" state="Qld" phone="0730678722" countryid="1" flags="4" openinghours="" latitude="-19.29557" longitude="146.7971"  />
	<store division="20" name="Williams Rouse Hill" number="20391" address1="Shop GR157, Rouse Hill" address2="Windsor Rd" suburb="Rouse Hill" postcode="2155" state="NSW" phone="0282793268" countryid="1" flags="4" openinghours="" latitude="-33.68207" longitude="150.9154" />
	<store division="20" name="Williams Robina" number="20394" address1="Shop 4042, Robina Town Centre" address2="Robina Town Centre Dr" suburb="Robina" postcode="4226" state="QLD" phone="0730678749" countryid="1" flags="4" openinghours="" latitude="-28.076981" longitude="153.385397" />
	<store division="20" name="Williams Mt Barker" number="20399" address1="Shop 40, Mt Barker Central Shopping Centre" address2="McLaren Street" suburb="Mt Barker" postcode="5251" state="SA" phone="0883912733" countryid="1" flags="4" openinghours="" latitude="-35.062755" longitude="138.858245" />
	<store division="20" name="Williams Plenty Valley" number="20404" address1="Shop 56, Westfield Plenty Valley" address2="Cnr MacDonalds Rd &amp; Civic Dr" suburb="Mill Park" postcode="3082" state="VIC" phone="0383738321" countryid="1" flags="4" openinghours="" latitude="-37.652404" longitude="145.067639" />
	<store division="20" name="Williams Ipswich Riverlink" number="20411" address1="Shop 35, Ipswich Riverlink" address2="Cnr Downs St &amp; The Terrace" suburb="North Ipswich" postcode="4305" state="QLD" phone="0730678742" countryid="1" flags="4" openinghours="" latitude="-27.606914" longitude="152.758686" />
	<store division="20" name="Williams Cragieburn" number="20423" address1="Shop B0-08 Craigieburn Central" address2="Craigieburn Rd" suburb="Craigieburn" postcode="3064" state="VIC" phone="0383738303" countryid="1" flags="4" openinghours="" latitude="-37.598443" longitude="144.941816" />
	<store division="20" name="Williams Glendale" number="20914" address1="Shop 63, Stockland Glendale" address2="Lake Rd" suburb="Glendale" postcode="2285" state="NSW" phone="0282793233" countryid="1" flags="4" openinghours="" latitude="-32.933621" longitude="151.64235" />
	<store division="20" name="Williams Kawana" number="20917" address1="Shop 317A, Kawana Shoppingtown" address2="Nicklin Wy" suburb="Kawana Waters" postcode="4575" state="QLD" phone="0730678726" countryid="1" flags="4" openinghours="" latitude="-26.703" longitude="153.130864" />
	<store division="20" name="Williams Wetherill Park" number="20070" address1="Shop 252, Stockland Wetherill Park" address2="581-583 Polding St" suburb="Wetherill Park" postcode="2164" state="NSW" phone="02 9757 3153" countryid="1" flags="4" openinghours="" latitude="-33.856604" longitude="150.8983" />
	<store division="40" name="Diana Ferrari Fairfield" number="40001" address1="262 Darebin Rd" address2="" suburb="Fairfield" postcode="3078" state="VIC" phone="0383738308" countryid="1" flags="6" openinghours="&lt;table border=&quot;0&quot; cellpadding=&quot;0&quot; cellspacing=&quot;0&quot;&gt;&lt;tr&gt;&lt;td width=&quot;80&quot;&gt;Mon - Sat&lt;/td&gt;&lt;td&gt;9:00am - 5:00pm&lt;/td&gt;&lt;/tr&gt;&lt;tr&gt;&lt;td width=&quot;80&quot;&gt;Sun&lt;/td&gt;&lt;td&gt;11:00am - 4:00pm&lt;/td&gt;&lt;/tr&gt;&lt;tr&gt;&lt;td width=&quot;80&quot;&gt;&amp;nbsp;&lt;/td&gt;&lt;td&gt;&amp;nbsp;&lt;/td&gt;&lt;/tr&gt;&lt;tr&gt;&lt;td width=&quot;80&quot;&gt;&amp;nbsp;&lt;/td&gt;&lt;td&gt;&amp;nbsp;&lt;/td&gt;&lt;/tr&gt;&lt;tr&gt;&lt;td width=&quot;80&quot;&gt;&amp;nbsp;&lt;/td&gt;&lt;td&gt;&amp;nbsp;&lt;/td&gt;&lt;/tr&gt;&lt;/table&gt;" latitude="-37.77695" longitude="145.0185"/>
	<store division="40" name="Diana Ferrari Moonee Ponds" number="40002" address1="126 Puckle St" address2="" suburb="Moonee Ponds" postcode="3039" state="VIC" phone="0383738322" countryid="1" flags="6" openinghours="&lt;table border=&quot;0&quot; cellpadding=&quot;0&quot; cellspacing=&quot;0&quot;&gt;&lt;tr&gt;&lt;td width=&quot;80&quot;&gt;Mon - Thurs&lt;/td&gt;&lt;td&gt;9:00am - 5:30pm&lt;/td&gt;&lt;/tr&gt;&lt;tr&gt;&lt;td width=&quot;80&quot;&gt;Fri&lt;/td&gt;&lt;td&gt;9:00am - 6:00pm&lt;/td&gt;&lt;/tr&gt;&lt;tr&gt;&lt;td width=&quot;80&quot;&gt;Sat&lt;/td&gt;&lt;td&gt;9:00am - 5:00pm&lt;/td&gt;&lt;/tr&gt;&lt;tr&gt;&lt;td width=&quot;80&quot;&gt;Sun&lt;/td&gt;&lt;td&gt;11:00am - 4:00pm&lt;/td&gt;&lt;/tr&gt;&lt;tr&gt;&lt;td width=&quot;80&quot;&gt;&amp;nbsp;&lt;/td&gt;&lt;td&gt;&amp;nbsp;&lt;/td&gt;&lt;/tr&gt;&lt;/table&gt;" latitude="-37.76571" longitude="144.9192" />
	<store division="40" name="Diana Ferrari Richmond" number="40004" address1="95 Swan St" address2="" suburb="Richmond" postcode="3121" state="VIC" phone="0383738327" countryid="1" flags="6" openinghours="&lt;table border=&quot;0&quot; cellpadding=&quot;0&quot; cellspacing=&quot;0&quot;&gt;&lt;tr&gt;&lt;td width=&quot;80&quot;&gt;Mon - Wed&lt;/td&gt;&lt;td&gt;9:30am - 5:30pm&lt;/td&gt;&lt;/tr&gt;&lt;tr&gt;&lt;td width=&quot;80&quot;&gt;Thurs - Fri&lt;/td&gt;&lt;td&gt;9:30am - 6:00pm&lt;/td&gt;&lt;/tr&gt;&lt;tr&gt;&lt;td width=&quot;80&quot;&gt;Sat&lt;/td&gt;&lt;td&gt;9:00am - 5:00pm&lt;/td&gt;&lt;/tr&gt;&lt;tr&gt;&lt;td width=&quot;80&quot;&gt;Sun&lt;/td&gt;&lt;td&gt;11:00am - 4:00pm&lt;/td&gt;&lt;/tr&gt;&lt;tr&gt;&lt;td width=&quot;80&quot;&gt;&amp;nbsp;&lt;/td&gt;&lt;td&gt;&amp;nbsp;&lt;/td&gt;&lt;/tr&gt;&lt;/table&gt;" latitude="-37.81495" longitude="144.9914"/>
	<store division="40" name="Diana Ferrari DFO Moorabbin" number="40006" address1="Shop 38, DFO Moorabbin" address2="Cnr Centre Dandenong &amp; Grange Rds" suburb="Moorabbin Airport" postcode="3194" state="VIC" phone="0383738323" countryid="1" flags="6" openinghours="&lt;table border=&quot;0&quot; cellpadding=&quot;0&quot; cellspacing=&quot;0&quot;&gt;&lt;tr&gt;&lt;td width=&quot;80&quot;&gt;Mon - Sun&lt;/td&gt;&lt;td&gt;10:00am - 6:00pm&lt;/td&gt;&lt;/tr&gt;&lt;tr&gt;&lt;td width=&quot;80&quot;&gt;&amp;nbsp;&lt;/td&gt;&lt;td&gt;&amp;nbsp;&lt;/td&gt;&lt;/tr&gt;&lt;tr&gt;&lt;td width=&quot;80&quot;&gt;&amp;nbsp;&lt;/td&gt;&lt;td&gt;&amp;nbsp;&lt;/td&gt;&lt;/tr&gt;&lt;tr&gt;&lt;td width=&quot;80&quot;&gt;&amp;nbsp;&lt;/td&gt;&lt;td&gt;&amp;nbsp;&lt;/td&gt;&lt;/tr&gt;&lt;tr&gt;&lt;td width=&quot;80&quot;&gt;&amp;nbsp;&lt;/td&gt;&lt;td&gt;&amp;nbsp;&lt;/td&gt;&lt;/tr&gt;&lt;/table&gt;" latitude="-37.97794" longitude="145.0989" />
	<store division="40" name="Diana Ferrari Birkenhead" number="40007" address1="Shop 193, Birkenhead Point Shopping Centre" address2="Roseby St" suburb="Drummoyne" postcode="2047" state="NSW" phone="0282793223" countryid="1" flags="6" openinghours="&lt;table border=&quot;0&quot; cellpadding=&quot;0&quot; cellspacing=&quot;0&quot;&gt;&lt;tr&gt;&lt;td width=&quot;80&quot;&gt;Mon - Fri&lt;/td&gt;&lt;td&gt;10:00am - 5:30pm&lt;/td&gt;&lt;/tr&gt;&lt;tr&gt;&lt;td width=&quot;80&quot;&gt;Sat&lt;/td&gt;&lt;td&gt;9:00am - 6:00pm&lt;/td&gt;&lt;/tr&gt;&lt;tr&gt;&lt;td width=&quot;80&quot;&gt;Sun&lt;/td&gt;&lt;td&gt;10:00am - 6:00pm&lt;/td&gt;&lt;/tr&gt;&lt;tr&gt;&lt;td width=&quot;80&quot;&gt;&amp;nbsp;&lt;/td&gt;&lt;td&gt;&amp;nbsp;&lt;/td&gt;&lt;/tr&gt;&lt;tr&gt;&lt;td width=&quot;80&quot;&gt;&amp;nbsp;&lt;/td&gt;&lt;td&gt;&amp;nbsp;&lt;/td&gt;&lt;/tr&gt;&lt;/table&gt;" latitude="-33.85106" longitude="151.1545" />
	<store division="40" name="Diana Ferrari DFO Brisbane" number="40008" address1="Shop T73, DFO Brisbane Airport" address2="1 Airport Drv" suburb="Brisbane Airport" postcode="4011" state="QLD" phone="0730678705" countryid="1" flags="6" openinghours="&lt;table border=&quot;0&quot; cellpadding=&quot;0&quot; cellspacing=&quot;0&quot;&gt;&lt;tr&gt;&lt;td width=&quot;80&quot;&gt;Mon - Sun&lt;/td&gt;&lt;td&gt;10:00am - 6:00pm&lt;/td&gt;&lt;/tr&gt;&lt;tr&gt;&lt;td width=&quot;80&quot;&gt;&amp;nbsp;&lt;/td&gt;&lt;td&gt;&amp;nbsp;&lt;/td&gt;&lt;/tr&gt;&lt;tr&gt;&lt;td width=&quot;80&quot;&gt;&amp;nbsp;&lt;/td&gt;&lt;td&gt;&amp;nbsp;&lt;/td&gt;&lt;/tr&gt;&lt;tr&gt;&lt;td width=&quot;80&quot;&gt;&amp;nbsp;&lt;/td&gt;&lt;td&gt;&amp;nbsp;&lt;/td&gt;&lt;/tr&gt;&lt;tr&gt;&lt;td width=&quot;80&quot;&gt;&amp;nbsp;&lt;/td&gt;&lt;td&gt;&amp;nbsp;&lt;/td&gt;&lt;/tr&gt;&lt;/table&gt;" latitude="-27.41924" longitude="153.0737" />
	<store division="40" name="Diana Ferrari DFO Essendon" number="40009" address1="Shop G059, DFO Essendon" address2="Cnr Tullamarine Fwy &amp; Bulla Rd" suburb="Essendon Airport" postcode="3041" state="VIC" phone="03 83738306" countryid="1" flags="6" openinghours="&lt;table border=&quot;0&quot; cellpadding=&quot;0&quot; cellspacing=&quot;0&quot;&gt;&lt;tr&gt;&lt;td width=&quot;80&quot;&gt;Mon - Sun&lt;/td&gt;&lt;td&gt;10:00am - 6:00pm&lt;/td&gt;&lt;/tr&gt;&lt;tr&gt;&lt;td width=&quot;80&quot;&gt;&amp;nbsp;&lt;/td&gt;&lt;td&gt;&amp;nbsp;&lt;/td&gt;&lt;/tr&gt;&lt;tr&gt;&lt;td width=&quot;80&quot;&gt;&amp;nbsp;&lt;/td&gt;&lt;td&gt;&amp;nbsp;&lt;/td&gt;&lt;/tr&gt;&lt;tr&gt;&lt;td width=&quot;80&quot;&gt;&amp;nbsp;&lt;/td&gt;&lt;td&gt;&amp;nbsp;&lt;/td&gt;&lt;/tr&gt;&lt;tr&gt;&lt;td width=&quot;80&quot;&gt;&amp;nbsp;&lt;/td&gt;&lt;td&gt;&amp;nbsp;&lt;/td&gt;&lt;/tr&gt;&lt;/table&gt;" latitude="-37.71668" longitude="144.8976"  />
	<store division="40" name="Diana Ferrari DFO Homebush" number="40011" address1="Shop 3-089, DFO Homebush" address2="Homebush Bay Drv" suburb="Homebush" postcode="2140" state="NSW" phone="0282793238" countryid="1" flags="6" openinghours="&lt;table border=&quot;0&quot; cellpadding=&quot;0&quot; cellspacing=&quot;0&quot;&gt;&lt;tr&gt;&lt;td width=&quot;80&quot;&gt;Mon - Sun&lt;/td&gt;&lt;td&gt;10:00am - 6:00pm&lt;/td&gt;&lt;/tr&gt;&lt;tr&gt;&lt;td width=&quot;80&quot;&gt;&amp;nbsp;&lt;/td&gt;&lt;td&gt;&amp;nbsp;&lt;/td&gt;&lt;/tr&gt;&lt;tr&gt;&lt;td width=&quot;80&quot;&gt;&amp;nbsp;&lt;/td&gt;&lt;td&gt;&amp;nbsp;&lt;/td&gt;&lt;/tr&gt;&lt;tr&gt;&lt;td width=&quot;80&quot;&gt;&amp;nbsp;&lt;/td&gt;&lt;td&gt;&amp;nbsp;&lt;/td&gt;&lt;/tr&gt;&lt;tr&gt;&lt;td width=&quot;80&quot;&gt;&amp;nbsp;&lt;/td&gt;&lt;td&gt;&amp;nbsp;&lt;/td&gt;&lt;/tr&gt;&lt;/table&gt;" latitude="-33.86679" longitude="151.0694" />
	<store division="40" name="Diana Ferrari DFO South Wharf" number="40012" address1="Tenancy 74, DFO South Wharf" address2="20 Convention Centre Place" suburb="South Wharf" postcode="3006" state="VIC" phone="0383738333" countryid="1" flags="6" openinghours="&lt;table border=&quot;0&quot; cellpadding=&quot;0&quot; cellspacing=&quot;0&quot;&gt;&lt;tr&gt;&lt;td width=&quot;80&quot;&gt;Mon - Thurs&lt;/td&gt;&lt;td&gt;10:00am - 6:00pm&lt;/td&gt;&lt;/tr&gt;&lt;tr&gt;&lt;td width=&quot;80&quot;&gt;Fri&lt;/td&gt;&lt;td&gt;10:00am - 9:00pm&lt;/td&gt;&lt;/tr&gt;&lt;tr&gt;&lt;td width=&quot;80&quot;&gt;Sat&lt;/td&gt;&lt;td&gt;10:00am - 6:00pm&lt;/td&gt;&lt;/tr&gt;&lt;tr&gt;&lt;td width=&quot;80&quot;&gt;Sun&lt;/td&gt;&lt;td&gt;10:00am - 6:00pm&lt;/td&gt;&lt;/tr&gt;&lt;tr&gt;&lt;td width=&quot;80&quot;&gt;&amp;nbsp;&lt;/td&gt;&lt;td&gt;&amp;nbsp;&lt;/td&gt;&lt;/tr&gt;&lt;/table&gt;" latitude="-37.82326" longitude="144.9659" />
	<store division="40" name="Diana Ferrari DFO Canberra" number="40015" address1="T171b, Direct Factory Outlet" address2="337 Canberra Ave" suburb="Fyshwick" postcode="2609" state="ACT" phone="02 62806304" countryid="1" flags="6" openinghours="&lt;table border=&quot;0&quot; cellpadding=&quot;0&quot; cellspacing=&quot;0&quot;&gt;&lt;tr&gt;&lt;td width=&quot;80&quot;&gt;Mon - Sun&lt;/td&gt;&lt;td&gt;10:00am - 6:00pm&lt;/td&gt;&lt;/tr&gt;&lt;tr&gt;&lt;td width=&quot;80&quot;&gt;&amp;nbsp;&lt;/td&gt;&lt;td&gt;&amp;nbsp;&lt;/td&gt;&lt;/tr&gt;&lt;tr&gt;&lt;td width=&quot;80&quot;&gt;&amp;nbsp;&lt;/td&gt;&lt;td&gt;&amp;nbsp;&lt;/td&gt;&lt;/tr&gt;&lt;tr&gt;&lt;td width=&quot;80&quot;&gt;&amp;nbsp;&lt;/td&gt;&lt;td&gt;&amp;nbsp;&lt;/td&gt;&lt;/tr&gt;&lt;tr&gt;&lt;td width=&quot;80&quot;&gt;&amp;nbsp;&lt;/td&gt;&lt;td&gt;&amp;nbsp;&lt;/td&gt;&lt;/tr&gt;&lt;/table&gt;" latitude="-35.3474" longitude="149.1588" />
	<store division="40" name="Diana Ferrari Nunawading Clearance" number="40016" address1="Shop 15, Brandsmart Outlet Centre" address2="288 Whitehorse Road" suburb="Nunawading" postcode="3131" state="VIC" phone="0383738326" countryid="1" flags="2" openinghours="" latitude="-37.8185717" longitude="145.1716189" />
	<store division="41" name="Diana Ferrari Highpoint" number="41001" address1="Shop 3109, Highpoint Shopping Centre" address2="200 Rosamond Rd" suburb="Maribyrnong" postcode="3032" state="VIC" phone="03 93170750" countryid="1" flags="5" openinghours="&lt;table border=&quot;0&quot; cellpadding=&quot;0&quot; cellspacing=&quot;0&quot;&gt;&lt;tr&gt;&lt;td width=&quot;80&quot;&gt;Mon - Wed&lt;/td&gt;&lt;td&gt;9:00am - 5:30pm&lt;/td&gt;&lt;/tr&gt;&lt;tr&gt;&lt;td width=&quot;80&quot;&gt;Thurs&lt;/td&gt;&lt;td&gt;9:00am - 9:00pm&lt;/td&gt;&lt;/tr&gt;&lt;tr&gt;&lt;td width=&quot;80&quot;&gt;Fri&lt;/td&gt;&lt;td&gt;9:00am - 5:00pm&lt;/td&gt;&lt;/tr&gt;&lt;tr&gt;&lt;td width=&quot;80&quot;&gt;Sat&lt;/td&gt;&lt;td&gt;9:00am - 5:00pm&lt;/td&gt;&lt;/tr&gt;&lt;tr&gt;&lt;td width=&quot;80&quot;&gt;Sun&lt;/td&gt;&lt;td&gt;10:00am - 5:00pm&lt;/td&gt;&lt;/tr&gt;&lt;/table&gt;" latitude="-37.77777" longitude="144.9299" />
	<store division="41" name="Diana Ferrari Erina" number="41004" address1="Level 1 Shop T205, Erina Fair Shopping Centre" address2="Terigal Drv" suburb="Erina" postcode="2250" state="NSW" phone="0282793231" countryid="1" flags="5" openinghours="&lt;table border=&quot;0&quot; cellpadding=&quot;0&quot; cellspacing=&quot;0&quot;&gt;&lt;tr&gt;&lt;td width=&quot;80&quot;&gt;Mon - Wed&lt;/td&gt;&lt;td&gt;9:00am - 5:30pm&lt;/td&gt;&lt;/tr&gt;&lt;tr&gt;&lt;td width=&quot;80&quot;&gt;Thurs&lt;/td&gt;&lt;td&gt;9:00am - 9:00pm&lt;/td&gt;&lt;/tr&gt;&lt;tr&gt;&lt;td width=&quot;80&quot;&gt;Fri&lt;/td&gt;&lt;td&gt;9:00am - 7:00pm&lt;/td&gt;&lt;/tr&gt;&lt;tr&gt;&lt;td width=&quot;80&quot;&gt;Sat&lt;/td&gt;&lt;td&gt;9:00am - 5:00pm&lt;/td&gt;&lt;/tr&gt;&lt;tr&gt;&lt;td width=&quot;80&quot;&gt;Sun&lt;/td&gt;&lt;td&gt;10:00am - 4:00pm&lt;/td&gt;&lt;/tr&gt;&lt;/table&gt;" latitude="-33.40485" longitude="151.3508" />
	<store division="41" name="Diana Ferrari Burwood" number="41006" address1="Shop 215, Westfield Burwood" address2="100 Burwood Rd" suburb="Burwood" postcode="2134" state="NSW" phone="0282793210" countryid="1" flags="21" openinghours="&lt;table border=&quot;0&quot; cellpadding=&quot;0&quot; cellspacing=&quot;0&quot;&gt;&lt;tr&gt;&lt;td width=&quot;80&quot;&gt;Mon - Wed&lt;/td&gt;&lt;td&gt;9:00am - 5:30pm&lt;/td&gt;&lt;/tr&gt;&lt;tr&gt;&lt;td width=&quot;80&quot;&gt;Thurs&lt;/td&gt;&lt;td&gt;9:00am - 9:00pm&lt;/td&gt;&lt;/tr&gt;&lt;tr&gt;&lt;td width=&quot;80&quot;&gt;Fri&lt;/td&gt;&lt;td&gt;9:00am - 5:30pm&lt;/td&gt;&lt;/tr&gt;&lt;tr&gt;&lt;td width=&quot;80&quot;&gt;Sat&lt;/td&gt;&lt;td&gt;9:00am - 5:00pm&lt;/td&gt;&lt;/tr&gt;&lt;tr&gt;&lt;td width=&quot;80&quot;&gt;Sun&lt;/td&gt;&lt;td&gt;10:00am - 5:00pm&lt;/td&gt;&lt;/tr&gt;&lt;/table&gt;" latitude="-33.87616" longitude="151.1039" />
	<store division="41" name="Diana Ferrari Penrith" number="41007" address1="Shop L02 283, Westfield Penrith" address2="Cnr Jane St &amp; Great Western Hwy" suburb="Penrith" postcode="2750" state="NSW" phone="0282793262" countryid="1" flags="21" openinghours="&lt;table border=&quot;0&quot; cellpadding=&quot;0&quot; cellspacing=&quot;0&quot;&gt;&lt;tr&gt;&lt;td width=&quot;80&quot;&gt;Mon - Wed&lt;/td&gt;&lt;td&gt;9:00am - 5:30pm&lt;/td&gt;&lt;/tr&gt;&lt;tr&gt;&lt;td width=&quot;80&quot;&gt;Thurs&lt;/td&gt;&lt;td&gt;9:00am - 9:00pm&lt;/td&gt;&lt;/tr&gt;&lt;tr&gt;&lt;td width=&quot;80&quot;&gt;Fri&lt;/td&gt;&lt;td&gt;9:00am - 5:30pm&lt;/td&gt;&lt;/tr&gt;&lt;tr&gt;&lt;td width=&quot;80&quot;&gt;Sat&lt;/td&gt;&lt;td&gt;9:00am - 5:00pm&lt;/td&gt;&lt;/tr&gt;&lt;tr&gt;&lt;td width=&quot;80&quot;&gt;Sun&lt;/td&gt;&lt;td&gt;10:00am - 4:00pm&lt;/td&gt;&lt;/tr&gt;&lt;/table&gt;" latitude="-33.76718" longitude="150.7038" />
	<store division="41" name="Diana Ferrari Knox City" number="41008" address1="Shop 2007A, Knox City" address2="425 Burwood Hwy" suburb="Wantirna South" postcode="3152" state="VIC" phone="0383738338" countryid="1" flags="5" openinghours="&lt;table border=&quot;0&quot; cellpadding=&quot;0&quot; cellspacing=&quot;0&quot;&gt;&lt;tr&gt;&lt;td width=&quot;80&quot;&gt;Mon - Wed&lt;/td&gt;&lt;td&gt;9:00am - 5:30pm&lt;/td&gt;&lt;/tr&gt;&lt;tr&gt;&lt;td width=&quot;80&quot;&gt;Thurs - Fri&lt;/td&gt;&lt;td&gt;9:00am - 9:00pm&lt;/td&gt;&lt;/tr&gt;&lt;tr&gt;&lt;td width=&quot;80&quot;&gt;Sat&lt;/td&gt;&lt;td&gt;9:00am - 5:00pm&lt;/td&gt;&lt;/tr&gt;&lt;tr&gt;&lt;td width=&quot;80&quot;&gt;Sun&lt;/td&gt;&lt;td&gt;10:00am - 5:00pm&lt;/td&gt;&lt;/tr&gt;&lt;tr&gt;&lt;td width=&quot;80&quot;&gt;&amp;nbsp;&lt;/td&gt;&lt;td&gt;&amp;nbsp;&lt;/td&gt;&lt;/tr&gt;&lt;/table&gt;" latitude="-37.86898" longitude="145.2352" />
	<store division="41" name="Diana Ferrari Canberra Centre" number="41010" address1="Shop AF17, Canberra Centre" address2="Bunda St" suburb="Canberra City" postcode="2600" state="ACT" phone="02 62472480" countryid="1" flags="21" openinghours="&lt;table border=&quot;0&quot; cellpadding=&quot;0&quot; cellspacing=&quot;0&quot;&gt;&lt;tr&gt;&lt;td width=&quot;80&quot;&gt;Mon - Thurs&lt;/td&gt;&lt;td&gt;9:00am - 5:30pm&lt;/td&gt;&lt;/tr&gt;&lt;tr&gt;&lt;td width=&quot;80&quot;&gt;Fri&lt;/td&gt;&lt;td&gt;9:00am - 9:00pm&lt;/td&gt;&lt;/tr&gt;&lt;tr&gt;&lt;td width=&quot;80&quot;&gt;Sat&lt;/td&gt;&lt;td&gt;9:00am - 5:00pm&lt;/td&gt;&lt;/tr&gt;&lt;tr&gt;&lt;td width=&quot;80&quot;&gt;Sun&lt;/td&gt;&lt;td&gt;10:00am - 4:00pm&lt;/td&gt;&lt;/tr&gt;&lt;tr&gt;&lt;td width=&quot;80&quot;&gt;&amp;nbsp;&lt;/td&gt;&lt;td&gt;&amp;nbsp;&lt;/td&gt;&lt;/tr&gt;&lt;/table&gt;" latitude="-35.30748" longitude="149.0983" />
	<store division="41" name="Diana Ferrari Castle Towers" number="41012" address1="Shop 504, Castle Towers Shopping Centre" address2="Old Castle Hill Rd" suburb="Castle Hill" postcode="2154" state="NSW" phone="0282793216" countryid="1" flags="21" openinghours="&lt;table border=&quot;0&quot; cellpadding=&quot;0&quot; cellspacing=&quot;0&quot;&gt;&lt;tr&gt;&lt;td width=&quot;80&quot;&gt;Mon - Wed&lt;/td&gt;&lt;td&gt;9:00am - 5:30pm&lt;/td&gt;&lt;/tr&gt;&lt;tr&gt;&lt;td width=&quot;80&quot;&gt;Thurs&lt;/td&gt;&lt;td&gt;9:00am - 9:00pm&lt;/td&gt;&lt;/tr&gt;&lt;tr&gt;&lt;td width=&quot;80&quot;&gt;Fri&lt;/td&gt;&lt;td&gt;9:00am - 5:30pm&lt;/td&gt;&lt;/tr&gt;&lt;tr&gt;&lt;td width=&quot;80&quot;&gt;Sat&lt;/td&gt;&lt;td&gt;9:00am - 5:00pm&lt;/td&gt;&lt;/tr&gt;&lt;tr&gt;&lt;td width=&quot;80&quot;&gt;Sun&lt;/td&gt;&lt;td&gt;10:00am - 5:00pm&lt;/td&gt;&lt;/tr&gt;&lt;/table&gt;" latitude="-33.73231" longitude="151.0056" />
	<store division="41" name="Diana Ferrari Southland" number="41015" address1="Shop 2129, Westfield Southland" address2="1239 Nepean Hwy" suburb="Cheltenham" postcode="3192" state="VIC" phone="0383738302" countryid="1" flags="5" openinghours="&lt;table border=&quot;0&quot; cellpadding=&quot;0&quot; cellspacing=&quot;0&quot;&gt;&lt;tr&gt;&lt;td width=&quot;80&quot;&gt;Mon - Wed&lt;/td&gt;&lt;td&gt;9:00am - 5:30pm&lt;/td&gt;&lt;/tr&gt;&lt;tr&gt;&lt;td width=&quot;80&quot;&gt;Thurs - Fri&lt;/td&gt;&lt;td&gt;9:00am - 9:00pm&lt;/td&gt;&lt;/tr&gt;&lt;tr&gt;&lt;td width=&quot;80&quot;&gt;Sat&lt;/td&gt;&lt;td&gt;9:00am - 5:00pm&lt;/td&gt;&lt;/tr&gt;&lt;tr&gt;&lt;td width=&quot;80&quot;&gt;Sun&lt;/td&gt;&lt;td&gt;10:00 - 5:00pm&lt;/td&gt;&lt;/tr&gt;&lt;tr&gt;&lt;td width=&quot;80&quot;&gt;&amp;nbsp;&lt;/td&gt;&lt;td&gt;&amp;nbsp;&lt;/td&gt;&lt;/tr&gt;&lt;/table&gt;" latitude="-37.95862" longitude="145.0525" />
	<store division="41" name="Diana Ferrari Chermside" number="41016" address1="Shop 371, Westfield Chermside" address2="Gympie Rd" suburb="Chermside" postcode="4032" state="QLD" phone="0730678716" countryid="1" flags="21" openinghours="&lt;table border=&quot;0&quot; cellpadding=&quot;0&quot; cellspacing=&quot;0&quot;&gt;&lt;tr&gt;&lt;td width=&quot;80&quot;&gt;Mon - Wed&lt;/td&gt;&lt;td&gt;9:00am - 5:30pm&lt;/td&gt;&lt;/tr&gt;&lt;tr&gt;&lt;td width=&quot;80&quot;&gt;Thurs - Fri&lt;/td&gt;&lt;td&gt;9:00am - 9:00pm&lt;/td&gt;&lt;/tr&gt;&lt;tr&gt;&lt;td width=&quot;80&quot;&gt;Sat&lt;/td&gt;&lt;td&gt;9:00am - 5:00pm&lt;/td&gt;&lt;/tr&gt;&lt;tr&gt;&lt;td width=&quot;80&quot;&gt;Sun&lt;/td&gt;&lt;td&gt;10:00 - 4:00pm&lt;/td&gt;&lt;/tr&gt;&lt;tr&gt;&lt;td width=&quot;80&quot;&gt;&amp;nbsp;&lt;/td&gt;&lt;td&gt;&amp;nbsp;&lt;/td&gt;&lt;/tr&gt;&lt;/table&gt;" latitude="-27.37862" longitude="153.0182" />
	<store division="41" name="Diana Ferrari Fountain Gate" number="41018" address1="Shop 1040/41, Westfield Fountain Gate" address2="352 Princes Highway" suburb="Fountain Gate" postcode="3805" state="VIC" phone="0383738312" countryid="1" flags="5" openinghours="&lt;table border=&quot;0&quot; cellpadding=&quot;0&quot; cellspacing=&quot;0&quot;&gt;&lt;tr&gt;&lt;td width=&quot;80&quot;&gt;Mon - Wed&lt;/td&gt;&lt;td&gt;9:00am - 5:30pm&lt;/td&gt;&lt;/tr&gt;&lt;tr&gt;&lt;td width=&quot;80&quot;&gt;Thurs - Fri&lt;/td&gt;&lt;td&gt;9:00am - 9:00pm&lt;/td&gt;&lt;/tr&gt;&lt;tr&gt;&lt;td width=&quot;80&quot;&gt;Sat&lt;/td&gt;&lt;td&gt;9:00am - 5:00pm&lt;/td&gt;&lt;/tr&gt;&lt;tr&gt;&lt;td width=&quot;80&quot;&gt;Sun&lt;/td&gt;&lt;td&gt;10:00am - 5:00pm&lt;/td&gt;&lt;/tr&gt;&lt;tr&gt;&lt;td width=&quot;80&quot;&gt;&amp;nbsp;&lt;/td&gt;&lt;td&gt;&amp;nbsp;&lt;/td&gt;&lt;/tr&gt;&lt;/table&gt;" latitude="-38.05006" longitude="145.2982" />
	<store division="41" name="Diana Ferrari Eastland" number="41019" address1="Shop G024, Eastland Shopping Centre" address2="171 Maroondah Hwy" suburb="Ringwood" postcode="3134" state="VIC" phone="0383738329" countryid="1" flags="5" openinghours="&lt;table border=&quot;0&quot; cellpadding=&quot;0&quot; cellspacing=&quot;0&quot;&gt;&lt;tr&gt;&lt;td width=&quot;80&quot;&gt;Mon - Wed&lt;/td&gt;&lt;td&gt;9:00am - 5:30pm&lt;/td&gt;&lt;/tr&gt;&lt;tr&gt;&lt;td width=&quot;80&quot;&gt;Thurs - Fri&lt;/td&gt;&lt;td&gt;9:00am - 9:00pm&lt;/td&gt;&lt;/tr&gt;&lt;tr&gt;&lt;td width=&quot;80&quot;&gt;Sat&lt;/td&gt;&lt;td&gt;9:00am - 5:00pm&lt;/td&gt;&lt;/tr&gt;&lt;tr&gt;&lt;td width=&quot;80&quot;&gt;Sun&lt;/td&gt;&lt;td&gt;10:00am - 5:00pm&lt;/td&gt;&lt;/tr&gt;&lt;tr&gt;&lt;td width=&quot;80&quot;&gt;&amp;nbsp;&lt;/td&gt;&lt;td&gt;&amp;nbsp;&lt;/td&gt;&lt;/tr&gt;&lt;/table&gt;" latitude="-37.77402" longitude="145.2483" />
	<store division="41" name="Diana Ferrari Miranda" number="41020" address1="Shop 2102, Westfield Miranda" address2="600 The Kingsway" suburb="Miranda" postcode="2228" state="NSW" phone="0282793249" countryid="1" flags="21" openinghours="&lt;table border=&quot;0&quot; cellpadding=&quot;0&quot; cellspacing=&quot;0&quot;&gt;&lt;tr&gt;&lt;td width=&quot;80&quot;&gt;Mon - Wed&lt;/td&gt;&lt;td&gt;9:00am - 5:30pm&lt;/td&gt;&lt;/tr&gt;&lt;tr&gt;&lt;td width=&quot;80&quot;&gt;Thurs&lt;/td&gt;&lt;td&gt;9:00am - 9:00pm&lt;/td&gt;&lt;/tr&gt;&lt;tr&gt;&lt;td width=&quot;80&quot;&gt;Fri&lt;/td&gt;&lt;td&gt;9:00am - 5:30pm&lt;/td&gt;&lt;/tr&gt;&lt;tr&gt;&lt;td width=&quot;80&quot;&gt;Sat&lt;/td&gt;&lt;td&gt;9:00am - 5:00pm&lt;/td&gt;&lt;/tr&gt;&lt;tr&gt;&lt;td width=&quot;80&quot;&gt;Sun&lt;/td&gt;&lt;td&gt;10:00am - 5:00pm&lt;/td&gt;&lt;/tr&gt;&lt;/table&gt;" latitude="-34.04987" longitude="151.1043" />
	<store division="41" name="Diana Ferrari Macarthur Square" number="41021" address1="Shop L059, Macarthur Square Shopping Centre" address2="Gilchrist Drv" suburb="Campbelltown" postcode="2560" state="NSW" phone="0282793213" countryid="1" flags="21" openinghours="&lt;table border=&quot;0&quot; cellpadding=&quot;0&quot; cellspacing=&quot;0&quot;&gt;&lt;tr&gt;&lt;td width=&quot;80&quot;&gt;Mon - Wed&lt;/td&gt;&lt;td&gt;9:00am - 5:30pm&lt;/td&gt;&lt;/tr&gt;&lt;tr&gt;&lt;td width=&quot;80&quot;&gt;Thurs&lt;/td&gt;&lt;td&gt;9:00am - 9:00pm&lt;/td&gt;&lt;/tr&gt;&lt;tr&gt;&lt;td width=&quot;80&quot;&gt;Fri&lt;/td&gt;&lt;td&gt;9:00am - 5:30pm&lt;/td&gt;&lt;/tr&gt;&lt;tr&gt;&lt;td width=&quot;80&quot;&gt;Sat&lt;/td&gt;&lt;td&gt;9:00am - 5:00pm&lt;/td&gt;&lt;/tr&gt;&lt;tr&gt;&lt;td width=&quot;80&quot;&gt;Sun&lt;/td&gt;&lt;td&gt;10:00am - 4:00pm&lt;/td&gt;&lt;/tr&gt;&lt;/table&gt;" latitude="-34.04989" longitude="150.8189" />
	<store division="41" name="Diana Ferrari Warringah" number="41023" address1="Shop 346, Warringah Mall" address2="Cnr Old Pittwater Rd &amp; Condamine St" suburb="Brookvale" postcode="2100" state="NSW" phone="0282793208" countryid="1" flags="5" openinghours="&lt;table border=&quot;0&quot; cellpadding=&quot;0&quot; cellspacing=&quot;0&quot;&gt;&lt;tr&gt;&lt;td width=&quot;80&quot;&gt;Mon - Wed&lt;/td&gt;&lt;td&gt;9:00am - 5:30pm&lt;/td&gt;&lt;/tr&gt;&lt;tr&gt;&lt;td width=&quot;80&quot;&gt;Thurs&lt;/td&gt;&lt;td&gt;9:00am - 9:00pm&lt;/td&gt;&lt;/tr&gt;&lt;tr&gt;&lt;td width=&quot;80&quot;&gt;Fri&lt;/td&gt;&lt;td&gt;9:00am - 5:30pm&lt;/td&gt;&lt;/tr&gt;&lt;tr&gt;&lt;td width=&quot;80&quot;&gt;Sat&lt;/td&gt;&lt;td&gt;9:00am - 5:00pm&lt;/td&gt;&lt;/tr&gt;&lt;tr&gt;&lt;td width=&quot;80&quot;&gt;Sun&lt;/td&gt;&lt;td&gt;10:00am - 5:00pm&lt;/td&gt;&lt;/tr&gt;&lt;/table&gt;" latitude="-33.76774" longitude="151.2661" />
	<store division="41" name="Diana Ferrari Hornsby" number="41024" address1="Shop 2026, Westfield Hornsby" address2="Cnr Florence &amp; Hunter Sts" suburb="Hornsby" postcode="2077" state="NSW" phone="0282793239" countryid="1" flags="5" openinghours="&lt;table border=&quot;0&quot; cellpadding=&quot;0&quot; cellspacing=&quot;0&quot;&gt;&lt;tr&gt;&lt;td width=&quot;80&quot;&gt;Mon - Wed&lt;/td&gt;&lt;td&gt;9:00am - 5:30pm&lt;/td&gt;&lt;/tr&gt;&lt;tr&gt;&lt;td width=&quot;80&quot;&gt;Thurs&lt;/td&gt;&lt;td&gt;9:00am - 9:00pm&lt;/td&gt;&lt;/tr&gt;&lt;tr&gt;&lt;td width=&quot;80&quot;&gt;Fri&lt;/td&gt;&lt;td&gt;9:00am - 5:30pm&lt;/td&gt;&lt;/tr&gt;&lt;tr&gt;&lt;td width=&quot;80&quot;&gt;Sat&lt;/td&gt;&lt;td&gt;9:00am - 5:00pm&lt;/td&gt;&lt;/tr&gt;&lt;tr&gt;&lt;td width=&quot;80&quot;&gt;Sun&lt;/td&gt;&lt;td&gt;10:00am - 5:00pm&lt;/td&gt;&lt;/tr&gt;&lt;/table&gt;" latitude="-33.70954" longitude="151.1041" />
	<store division="41" name="Diana Ferrari Kotara" number="41028" address1="Shop 2114, Westfield Kotara" address2="Cnr Northcott Drv &amp; Park Ave" suburb="Kotara" postcode="2289" state="NSW" phone="0282793243" countryid="1" flags="5" openinghours="&lt;table border=&quot;0&quot; cellpadding=&quot;0&quot; cellspacing=&quot;0&quot;&gt;&lt;tr&gt;&lt;td width=&quot;80&quot;&gt;Mon - Wed&lt;/td&gt;&lt;td&gt;9:00am - 5:30pm&lt;/td&gt;&lt;/tr&gt;&lt;tr&gt;&lt;td width=&quot;80&quot;&gt;Thurs&lt;/td&gt;&lt;td&gt;9:00am - 9:00pm&lt;/td&gt;&lt;/tr&gt;&lt;tr&gt;&lt;td width=&quot;80&quot;&gt;Fri&lt;/td&gt;&lt;td&gt;9:00am - 5:30pm&lt;/td&gt;&lt;/tr&gt;&lt;tr&gt;&lt;td width=&quot;80&quot;&gt;Sat&lt;/td&gt;&lt;td&gt;9:00am - 5:00pm&lt;/td&gt;&lt;/tr&gt;&lt;tr&gt;&lt;td width=&quot;80&quot;&gt;Sun&lt;/td&gt;&lt;td&gt;10:00am - 4:00pm&lt;/td&gt;&lt;/tr&gt;&lt;/table&gt;" latitude="-32.95081" longitude="151.6943" />
	<store division="41" name="Diana Ferrari Doncaster" number="41030" address1="Shop G146, Westfield Doncaster" address2="619 Doncaster Road" suburb="Doncaster" postcode="3108" state="VIC" phone="0383738305" countryid="1" flags="29" openinghours="&lt;table border=&quot;0&quot; cellpadding=&quot;0&quot; cellspacing=&quot;0&quot;&gt;&lt;tr&gt;&lt;td width=&quot;80&quot;&gt;Mon - Wed&lt;/td&gt;&lt;td&gt;9:00am - 5:30pm&lt;/td&gt;&lt;/tr&gt;&lt;tr&gt;&lt;td width=&quot;80&quot;&gt;Thurs - Fri&lt;/td&gt;&lt;td&gt;9:00am - 9:00pm&lt;/td&gt;&lt;/tr&gt;&lt;tr&gt;&lt;td width=&quot;80&quot;&gt;Sat&lt;/td&gt;&lt;td&gt;9:00am - 6:00pm&lt;/td&gt;&lt;/tr&gt;&lt;tr&gt;&lt;td width=&quot;80&quot;&gt;Sun&lt;/td&gt;&lt;td&gt;10:00am - 5:00pm&lt;/td&gt;&lt;/tr&gt;&lt;tr&gt;&lt;td width=&quot;80&quot;&gt;&amp;nbsp;&lt;/td&gt;&lt;td&gt;&amp;nbsp;&lt;/td&gt;&lt;/tr&gt;&lt;/table&gt;" latitude="-37.78303" longitude="145.1225" />
	<store division="41" name="Diana Ferrari Woden" number="41033" address1="Shop 011A, Westfield Woden" address2="Keltie Street" suburb="Woden" postcode="2606" state="ACT" phone="02 62815677" countryid="1" flags="5" openinghours="&lt;table border=&quot;0&quot; cellpadding=&quot;0&quot; cellspacing=&quot;0&quot;&gt;&lt;tr&gt;&lt;td width=&quot;80&quot;&gt;Mon - Thurs&lt;/td&gt;&lt;td&gt;9:00am - 5:30pm&lt;/td&gt;&lt;/tr&gt;&lt;tr&gt;&lt;td width=&quot;80&quot;&gt;Fri&lt;/td&gt;&lt;td&gt;9:00am - 9:00pm&lt;/td&gt;&lt;/tr&gt;&lt;tr&gt;&lt;td width=&quot;80&quot;&gt;Sat&lt;/td&gt;&lt;td&gt;9:00am - 5:00pm&lt;/td&gt;&lt;/tr&gt;&lt;tr&gt;&lt;td width=&quot;80&quot;&gt;Sun&lt;/td&gt;&lt;td&gt;10:00am - 4:00pm&lt;/td&gt;&lt;/tr&gt;&lt;tr&gt;&lt;td width=&quot;80&quot;&gt;&amp;nbsp;&lt;/td&gt;&lt;td&gt;&amp;nbsp;&lt;/td&gt;&lt;/tr&gt;&lt;/table&gt;" latitude="-35.34454" longitude="149.0864" />
	<store division="41" name="Diana Ferrari Macquarie Centre" number="41035" address1="Level 2 Shop 77, Macquarie Centre" address2="Cnr Herring &amp; Waterloo Rds" suburb="North Ryde" postcode="2113" state="NSW" phone="0282793256" countryid="1" flags="5" openinghours="&lt;table border=&quot;0&quot; cellpadding=&quot;0&quot; cellspacing=&quot;0&quot;&gt;&lt;tr&gt;&lt;td width=&quot;80&quot;&gt;Mon - Wed&lt;/td&gt;&lt;td&gt;9:00am - 5:30pm&lt;/td&gt;&lt;/tr&gt;&lt;tr&gt;&lt;td width=&quot;80&quot;&gt;Thurs&lt;/td&gt;&lt;td&gt;9:00am - 9:30pm&lt;/td&gt;&lt;/tr&gt;&lt;tr&gt;&lt;td width=&quot;80&quot;&gt;Fri&lt;/td&gt;&lt;td&gt;9:00am - 5:30pm&lt;/td&gt;&lt;/tr&gt;&lt;tr&gt;&lt;td width=&quot;80&quot;&gt;Sat&lt;/td&gt;&lt;td&gt;9:00am - 5:00pm&lt;/td&gt;&lt;/tr&gt;&lt;tr&gt;&lt;td width=&quot;80&quot;&gt;Sun&lt;/td&gt;&lt;td&gt;10:00am - 4:00pm&lt;/td&gt;&lt;/tr&gt;&lt;/table&gt;" latitude="-33.79677" longitude="151.1244" />
	<store division="41" name="Diana Ferrari Chatswood" number="41043" address1="Shop 534, Westfield Chatswood" address2="1 Anderson Street" suburb="Chatswood" postcode="2067" state="NSW" phone="0282793220" countryid="1" flags="29" openinghours="&lt;table border=&quot;0&quot; cellpadding=&quot;0&quot; cellspacing=&quot;0&quot;&gt;&lt;tr&gt;&lt;td width=&quot;80&quot;&gt;Mon - Wed&lt;/td&gt;&lt;td&gt;9:00am - 5:30pm&lt;/td&gt;&lt;/tr&gt;&lt;tr&gt;&lt;td width=&quot;80&quot;&gt;Thurs&lt;/td&gt;&lt;td&gt;9:00am - 9:00pm&lt;/td&gt;&lt;/tr&gt;&lt;tr&gt;&lt;td width=&quot;80&quot;&gt;Fri&lt;/td&gt;&lt;td&gt;9:00am - 5:30pm&lt;/td&gt;&lt;/tr&gt;&lt;tr&gt;&lt;td width=&quot;80&quot;&gt;Sat&lt;/td&gt;&lt;td&gt;9:00am - 5:00pm&lt;/td&gt;&lt;/tr&gt;&lt;tr&gt;&lt;td width=&quot;80&quot;&gt;Sun&lt;/td&gt;&lt;td&gt;10:00am - 5:00pm&lt;/td&gt;&lt;/tr&gt;&lt;/table&gt;" latitude="-33.79633" longitude="151.1671" />
	<store division="41" name="Diana Ferrari Chadstone" number="41047" address1="Lower Level Shop B213A, Chadstone Shopping Centre" address2="1341 Dandenong Rd" suburb="Chadstone" postcode="3148" state="VIC" phone="0383738301" countryid="1" flags="21" openinghours="&lt;table border=&quot;0&quot; cellpadding=&quot;0&quot; cellspacing=&quot;0&quot;&gt;&lt;tr&gt;&lt;td width=&quot;80&quot;&gt;Mon - Wed&lt;/td&gt;&lt;td&gt;9:00am - 5:30pm&lt;/td&gt;&lt;/tr&gt;&lt;tr&gt;&lt;td width=&quot;80&quot;&gt;Thurs - Fri&lt;/td&gt;&lt;td&gt;9:00am - 9:00pm&lt;/td&gt;&lt;/tr&gt;&lt;tr&gt;&lt;td width=&quot;80&quot;&gt;Sat&lt;/td&gt;&lt;td&gt;9:00am - 5:30pm&lt;/td&gt;&lt;/tr&gt;&lt;tr&gt;&lt;td width=&quot;80&quot;&gt;Sun&lt;/td&gt;&lt;td&gt;10:00am - 5:00pm&lt;/td&gt;&lt;/tr&gt;&lt;tr&gt;&lt;td width=&quot;80&quot;&gt;&amp;nbsp;&lt;/td&gt;&lt;td&gt;&amp;nbsp;&lt;/td&gt;&lt;/tr&gt;&lt;/table&gt;" latitude="-37.87422" longitude="145.0916" />
	<store division="41" name="Diana Ferrari Garden City" number="41050" address1="Shop 2117, Westfield Garden City" address2="Cnr Logan &amp; Kessels Rds" suburb="Upper Mt Gravatt" postcode="4122" state="QLD" phone="030678765" countryid="1" flags="21" openinghours="&lt;table border=&quot;0&quot; cellpadding=&quot;0&quot; cellspacing=&quot;0&quot;&gt;&lt;tr&gt;&lt;td width=&quot;80&quot;&gt;Mon - Wed&lt;/td&gt;&lt;td&gt;9:00am - 5:30pm&lt;/td&gt;&lt;/tr&gt;&lt;tr&gt;&lt;td width=&quot;80&quot;&gt;Thurs&lt;/td&gt;&lt;td&gt;9:00am - 9:00pm&lt;/td&gt;&lt;/tr&gt;&lt;tr&gt;&lt;td width=&quot;80&quot;&gt;Fri&lt;/td&gt;&lt;td&gt;9:00am - 5:30pm&lt;/td&gt;&lt;/tr&gt;&lt;tr&gt;&lt;td width=&quot;80&quot;&gt;Sat&lt;/td&gt;&lt;td&gt;9:00am - 5:00pm&lt;/td&gt;&lt;/tr&gt;&lt;tr&gt;&lt;td width=&quot;80&quot;&gt;Sun&lt;/td&gt;&lt;td&gt;10:00am - 4:00pm&lt;/td&gt;&lt;/tr&gt;&lt;/table&gt;" latitude="-27.54904" longitude="153.104" />
	<store division="41" name="Diana Ferrari Eastgardens" number="41051" address1="Shop 120, Westfield Eastgardens" address2="152 Bunnerong Road" suburb="Eastgardens" postcode="2036" state="NSW" phone="0282793228" countryid="1" flags="5" openinghours="&lt;table border=&quot;0&quot; cellpadding=&quot;0&quot; cellspacing=&quot;0&quot;&gt;&lt;tr&gt;&lt;td width=&quot;80&quot;&gt;Mon - Wed&lt;/td&gt;&lt;td&gt;9:00am - 5:30pm&lt;/td&gt;&lt;/tr&gt;&lt;tr&gt;&lt;td width=&quot;80&quot;&gt;Thurs&lt;/td&gt;&lt;td&gt;9:00am - 9:00pm&lt;/td&gt;&lt;/tr&gt;&lt;tr&gt;&lt;td width=&quot;80&quot;&gt;Fri&lt;/td&gt;&lt;td&gt;9:00am - 5:30pm&lt;/td&gt;&lt;/tr&gt;&lt;tr&gt;&lt;td width=&quot;80&quot;&gt;Sat&lt;/td&gt;&lt;td&gt;9:00am - 5:00pm&lt;/td&gt;&lt;/tr&gt;&lt;tr&gt;&lt;td width=&quot;80&quot;&gt;Sun&lt;/td&gt;&lt;td&gt;10:00am - 5:00pm&lt;/td&gt;&lt;/tr&gt;&lt;/table&gt;" latitude="-33.96624" longitude="151.225" />
	<store division="30" name="BBSC St Marys" number="30004" address1="1239 South Rd" address2="" suburb="St Marys" postcode="5042" state="SA" phone="0882767027" countryid="1" flags="5" openinghours="&lt;table border=&quot;0&quot; cellpadding=&quot;0&quot; cellspacing=&quot;0&quot;&gt;&lt;tr&gt;&lt;td width=&quot;80&quot;&gt;Mon - Wed&lt;/td&gt;&lt;td&gt;9:00am - 5:30pm&lt;/td&gt;&lt;/tr&gt;&lt;tr&gt;&lt;td width=&quot;80&quot;&gt;Thurs&lt;/td&gt;&lt;td&gt;9:00am - 9:00pm&lt;/td&gt;&lt;/tr&gt;&lt;tr&gt;&lt;td width=&quot;80&quot;&gt;Fri&lt;/td&gt;&lt;td&gt;9:00am - 5:30pm&lt;/td&gt;&lt;/tr&gt;&lt;tr&gt;&lt;td width=&quot;80&quot;&gt;Sat&lt;/td&gt;&lt;td&gt;9:00am - 5:00pm&lt;/td&gt;&lt;/tr&gt;&lt;tr&gt;&lt;td width=&quot;80&quot;&gt;Sun&lt;/td&gt;&lt;td&gt;10:00am - 5:00pm&lt;/td&gt;&lt;/tr&gt;&lt;/table&gt;" latitude="-35.000932" longitude="138.575859" />
	</stores>